{"type":"FeatureCollection","features":[{"type":"Feature","properties":{"City":"Jackson"},"geometry":{"type":"Point","coordinates":[-74.36542510986327,40.11588965267845]}},{"type":"Feature","properties":{"City":"Sandusky"},"geometry":{"type":"Point","coordinates":[-82.70782470703125,41.449160079118975]}},{"type":"Feature","properties":{"City":"Valencia"},"geometry":{"type":"Point","coordinates":[-118.56101989746094,34.41413239423026]}},{"type":"Feature","properties":{"City":"Charlotte"},"geometry":{"type":"Point","coordinates":[-80.84426879882811,35.22767235493586]}},{"type":"Feature","properties":{"City":"Kuwana"},"geometry":{"type":"Point","coordinates":[136.6486358642578,35.04714352438559]}},{"type":"Feature","properties":{"City":"Vaughan"},"geometry":{"type":"Point","coordinates":[-79.50874328613281,43.823133635349556]}},{"type":"Feature","properties":{"City":"Sandusky"},"geometry":{"type":"Point","coordinates":[-82.71778106689453,41.44941741390757]}},{"type":"Feature","properties":{"City":"Doswell"},"geometry":{"type":"Point","coordinates":[-77.464599609375,37.860759886765194]}},{"type":"Feature","properties":{"City":"Mason"},"geometry":{"type":"Point","coordinates":[-84.30976867675781,39.36031616648231]}},{"type":"Feature","properties":{"City":"Zator"},"geometry":{"type":"Point","coordinates":[19.40932273864746,49.999463999158]}},{"type":"Feature","properties":{"City":"Xinjian"},"geometry":{"type":"Point","coordinates":[115.894775390625,28.6785401085332]}},{"type":"Feature","properties":{"City":"Salou"},"geometry":{"type":"Point","coordinates":[1.1436080932617188,41.0767631307246]}},{"type":"Feature","properties":{"City":"Valencia"},"geometry":{"type":"Point","coordinates":[-118.55535507202148,34.41399077791693]}},{"type":"Feature","properties":{"City":"Arlington"},"geometry":{"type":"Point","coordinates":[-97.10918426513672,32.736172891790105]}}]}