{"type":"FeatureCollection","features":[{"type":"Feature","properties":{"City":"Jackson"},"geometry":{"type":"Point","coordinates":[-74.36473846435547,40.11516762649184]}},{"type":"Feature","properties":{"City":"Sandusky"},"geometry":{"type":"Point","coordinates":[-82.70610809326172,41.4504467428547]}},{"type":"Feature","properties":{"City":"Valencia"},"geometry":{"type":"Point","coordinates":[-118.56084823608397,34.41399077791693]}},{"type":"Feature","properties":{"City":"Salou"},"geometry":{"type":"Point","coordinates":[1.1437797546386719,41.076892534081914]}},{"type":"Feature","properties":{"City":"Charlotte"},"geometry":{"type":"Point","coordinates":[-80.8428955078125,35.22823325064214]}},{"type":"Feature","properties":{"City":"Kuwana"},"geometry":{"type":"Point","coordinates":[136.64966583251953,35.046862452490686]}},{"type":"Feature","properties":{"City":"Sandusky"},"geometry":{"type":"Point","coordinates":[-82.7157211303711,41.4509614012039]}},{"type":"Feature","properties":{"City":"Vaughan"},"geometry":{"type":"Point","coordinates":[-79.51148986816406,43.82164741238288]}},{"type":"Feature","properties":{"City":"Doswell"},"geometry":{"type":"Point","coordinates":[-77.46391296386719,37.860759886765194]}},{"type":"Feature","properties":{"City":"Mason"},"geometry":{"type":"Point","coordinates":[-84.31011199951172,39.360448890299935]}}]}