{"type":"FeatureCollection","features":[{"type":"Feature","properties":{"City":"Abu Dhabi"},"geometry":{"type":"Point","coordinates":[54.37408447265625,24.477150011148677]}},{"type":"Feature","properties":{"City":"Jackson"},"geometry":{"type":"Point","coordinates":[-74.42928314208984,40.1329534940629]}},{"type":"Feature","properties":{"City":"Sandusky"},"geometry":{"type":"Point","coordinates":[-82.70645141601562,41.450189412149]}},{"type":"Feature","properties":{"City":"Fujiyoshida"},"geometry":{"type":"Point","coordinates":[138.8333702087402,35.481220951489064]}},{"type":"Feature","properties":{"City":"Salou"},"geometry":{"type":"Point","coordinates":[1.1437797546386719,41.077021937184476]}},{"type":"Feature","properties":{"City":"Valencia"},"geometry":{"type":"Point","coordinates":[-118.56127738952637,34.41395537380114]}},{"type":"Feature","properties":{"City":"Kuwana"},"geometry":{"type":"Point","coordinates":[136.64966583251953,35.048267802293594]}},{"type":"Feature","properties":{"City":"Charlotte"},"geometry":{"type":"Point","coordinates":[-80.8435821533203,35.22935503042248]}},{"type":"Feature","properties":{"City":"Sandusky"},"geometry":{"type":"Point","coordinates":[-82.71031379699707,41.450189412149]}},{"type":"Feature","properties":{"City":"Vaughan"},"geometry":{"type":"Point","coordinates":[-79.50874328613281,43.82139970495797]}},{"type":"Feature","properties":{"City":"Mason"},"geometry":{"type":"Point","coordinates":[-84.30925369262694,39.36031616648231]}},{"type":"Feature","properties":{"City":"Doswell"},"geometry":{"type":"Point","coordinates":[-77.464599609375,37.86021777498129]}}]}